{"markers":[{"city_name":"Aliquippa","Lat":"40.61555442","Lng":"-80.25532411","county_name":"Beaver"},{"city_name":"Ambridge","Lat":"40.59226139","Lng":"-80.22662020","county_name":"Beaver"},{"city_name":"Baden","Lat":"40.63905921","Lng":"-80.22186275","county_name":"Beaver"},{"city_name":"Beaver","Lat":"40.69392650","Lng":"-80.30759895","county_name":"Beaver"},{"city_name":"Beaver Falls","Lat":"40.76202833","Lng":"-80.32276784","county_name":"Beaver"},{"city_name":"Big Beaver","Lat":"40.82341157","Lng":"-80.36320124","county_name":"Beaver"},{"city_name":"Bridgewater","Lat":"40.70674971","Lng":"-80.30089096","county_name":"Beaver"},{"city_name":"Conway","Lat":"40.66711374","Lng":"-80.24171309","county_name":"Beaver"},{"city_name":"Darlington","Lat":"40.81040250","Lng":"-80.42358979","county_name":"Beaver"},{"city_name":"East Rochester","Lat":"40.69840954","Lng":"-80.26867519","county_name":"Beaver"},{"city_name":"Eastvale","Lat":"40.76749069","Lng":"-80.31544151","county_name":"Beaver"},{"city_name":"Economy","Lat":"40.64089947","Lng":"-80.18412800","county_name":"Beaver"},{"city_name":"Ellwood City","Lat":"40.86214035","Lng":"-80.28273623","county_name":"Beaver"},{"city_name":"Fallston","Lat":"40.72334893","Lng":"-80.31241393","county_name":"Beaver"},{"city_name":"Frankfort Springs","Lat":"40.48055924","Lng":"-80.44432301","county_name":"Beaver"},{"city_name":"Freedom","Lat":"40.68543861","Lng":"-80.25292977","county_name":"Beaver"},{"city_name":"Georgetown","Lat":"40.64187837","Lng":"-80.49963004","county_name":"Beaver"},{"city_name":"Glasgow","Lat":"40.64471108","Lng":"-80.50795886","county_name":"Beaver"},{"city_name":"Homewood","Lat":"40.81262596","Lng":"-80.32912995","county_name":"Beaver"},{"city_name":"Hookstown","Lat":"40.59907381","Lng":"-80.47333112","county_name":"Beaver"},{"city_name":"Industry","Lat":"40.65913270","Lng":"-80.41131612","county_name":"Beaver"},{"city_name":"Koppel","Lat":"40.83494757","Lng":"-80.32149830","county_name":"Beaver"},{"city_name":"Midland","Lat":"40.63827295","Lng":"-80.45571602","county_name":"Beaver"},{"city_name":"Monaca","Lat":"40.68355721","Lng":"-80.27424409","county_name":"Beaver"},{"city_name":"New Brighton","Lat":"40.73551806","Lng":"-80.30893782","county_name":"Beaver"},{"city_name":"New Galilee","Lat":"40.83367355","Lng":"-80.40074636","county_name":"Beaver"},{"city_name":"Ohioville","Lat":"40.68711313","Lng":"-80.47844011","county_name":"Beaver"},{"city_name":"Patterson Heights","Lat":"40.73915935","Lng":"-80.32602256","county_name":"Beaver"},{"city_name":"Rochester","Lat":"40.70253225","Lng":"-80.28363540","county_name":"Beaver"},{"city_name":"Shippingport","Lat":"40.62438391","Lng":"-80.42259578","county_name":"Beaver"},{"city_name":"South Heights","Lat":"40.57503052","Lng":"-80.23610043","county_name":"Beaver"},{"city_name":"West Mayfield","Lat":"40.78029685","Lng":"-80.33885526","county_name":"Beaver"}],"info":{"total": "32"}}