{"markers":[{"city_name":"Bellefonte","Lat":"40.91421015","Lng":"-77.76784574","county_name":"Centre"},{"city_name":"Centre Hall","Lat":"40.84464678","Lng":"-77.68474185","county_name":"Centre"},{"city_name":"Howard","Lat":"41.01267022","Lng":"-77.65661121","county_name":"Centre"},{"city_name":"Milesburg","Lat":"40.94231040","Lng":"-77.79209135","county_name":"Centre"},{"city_name":"Millheim","Lat":"40.89350516","Lng":"-77.47653549","county_name":"Centre"},{"city_name":"Philipsburg","Lat":"40.89539372","Lng":"-78.21551908","county_name":"Centre"},{"city_name":"Port Matilda","Lat":"40.79941916","Lng":"-78.05250281","county_name":"Centre"},{"city_name":"Snow Shoe","Lat":"41.02772981","Lng":"-77.94971612","county_name":"Centre"},{"city_name":"South Philipsburg","Lat":"40.88671733","Lng":"-78.21871237","county_name":"Centre"},{"city_name":"State College","Lat":"40.79095151","Lng":"-77.85685329","county_name":"Centre"},{"city_name":"Unionville","Lat":"40.90608483","Lng":"-77.87660861","county_name":"Centre"}],"info":{"total": "11"}}