{"markers":[{"city_name":"Ashville","Lat":"40.55966685","Lng":"-78.54776802","county_name":"Cambria"},{"city_name":"Brownstown","Lat":"40.33367259","Lng":"-78.93726922","county_name":"Cambria"},{"city_name":"Carrolltown","Lat":"40.60412623","Lng":"-78.70746602","county_name":"Cambria"},{"city_name":"Cassandra","Lat":"40.40858983","Lng":"-78.64065711","county_name":"Cambria"},{"city_name":"Chest Springs","Lat":"40.57813963","Lng":"-78.60983191","county_name":"Cambria"},{"city_name":"Conemaugh","Lat":"40.32674080","Lng":"-78.90808050","county_name":"Cambria"},{"city_name":"Cresson","Lat":"40.46261828","Lng":"-78.58666806","county_name":"Cambria"},{"city_name":"Daisytown","Lat":"40.31971959","Lng":"-78.90411362","county_name":"Cambria"},{"city_name":"Dale","Lat":"40.31167380","Lng":"-78.90462872","county_name":"Cambria"},{"city_name":"East Conemaugh","Lat":"40.34756937","Lng":"-78.88614932","county_name":"Cambria"},{"city_name":"Ebensburg","Lat":"40.48812135","Lng":"-78.72626954","county_name":"Cambria"},{"city_name":"Ehrenfeld","Lat":"40.37433853","Lng":"-78.77585636","county_name":"Cambria"},{"city_name":"Ferndale","Lat":"40.28813478","Lng":"-78.91732812","county_name":"Cambria"},{"city_name":"Franklin","Lat":"40.34167444","Lng":"-78.88432975","county_name":"Cambria"},{"city_name":"Gallitzin","Lat":"40.48100428","Lng":"-78.55468179","county_name":"Cambria"},{"city_name":"Geistown","Lat":"40.29361955","Lng":"-78.87245569","county_name":"Cambria"},{"city_name":"Hastings","Lat":"40.66485854","Lng":"-78.70862929","county_name":"Cambria"},{"city_name":"Johnstown","Lat":"40.32563553","Lng":"-78.91954172","county_name":"Cambria"},{"city_name":"Lilly","Lat":"40.42428564","Lng":"-78.62040374","county_name":"Cambria"},{"city_name":"Lorain","Lat":"40.29606123","Lng":"-78.89568906","county_name":"Cambria"},{"city_name":"Loretto","Lat":"40.50916194","Lng":"-78.63555196","county_name":"Cambria"},{"city_name":"Nanty Glo","Lat":"40.47229360","Lng":"-78.83335710","county_name":"Cambria"},{"city_name":"Northern Cambria","Lat":"40.65617221","Lng":"-78.77813142","county_name":"Cambria"},{"city_name":"Patton","Lat":"40.63334897","Lng":"-78.64846501","county_name":"Cambria"},{"city_name":"Portage","Lat":"40.38683530","Lng":"-78.67480778","county_name":"Cambria"},{"city_name":"Sankertown","Lat":"40.47159010","Lng":"-78.59204279","county_name":"Cambria"},{"city_name":"Scalp Level","Lat":"40.24954438","Lng":"-78.84434861","county_name":"Cambria"},{"city_name":"South Fork","Lat":"40.36363856","Lng":"-78.79165467","county_name":"Cambria"},{"city_name":"Southmont","Lat":"40.31078597","Lng":"-78.93272299","county_name":"Cambria"},{"city_name":"Summerhill","Lat":"40.37588587","Lng":"-78.76128289","county_name":"Cambria"},{"city_name":"Tunnelhill","Lat":"40.47892336","Lng":"-78.54224365","county_name":"Cambria"},{"city_name":"Vintondale","Lat":"40.47969587","Lng":"-78.91207116","county_name":"Cambria"},{"city_name":"Westmont","Lat":"40.31944938","Lng":"-78.95236130","county_name":"Cambria"},{"city_name":"Wilmore","Lat":"40.38668818","Lng":"-78.71753700","county_name":"Cambria"}],"info":{"total": "34"}}