{"markers":[{"city_name":"Atglen","Lat":"39.94718790","Lng":"-75.97462549","county_name":"Chester"},{"city_name":"Avondale","Lat":"39.82457189","Lng":"-75.78197597","county_name":"Chester"},{"city_name":"Coatesville","Lat":"39.98487318","Lng":"-75.81976075","county_name":"Chester"},{"city_name":"Downingtown","Lat":"40.00764548","Lng":"-75.70194690","county_name":"Chester"},{"city_name":"Elverson","Lat":"40.15571536","Lng":"-75.82985697","county_name":"Chester"},{"city_name":"Honey Brook","Lat":"40.09407587","Lng":"-75.91142229","county_name":"Chester"},{"city_name":"Kennett Square","Lat":"39.84366408","Lng":"-75.71112528","county_name":"Chester"},{"city_name":"Malvern","Lat":"40.03275624","Lng":"-75.51415600","county_name":"Chester"},{"city_name":"Modena","Lat":"39.96157668","Lng":"-75.80329547","county_name":"Chester"},{"city_name":"Oxford","Lat":"39.78633470","Lng":"-75.97878931","county_name":"Chester"},{"city_name":"Parkesburg","Lat":"39.95921570","Lng":"-75.91763973","county_name":"Chester"},{"city_name":"Phoenixville","Lat":"40.13574685","Lng":"-75.51998850","county_name":"Chester"},{"city_name":"South Coatesville","Lat":"39.96969765","Lng":"-75.81332240","county_name":"Chester"},{"city_name":"Spring City","Lat":"40.17671820","Lng":"-75.54670590","county_name":"Chester"},{"city_name":"West Chester","Lat":"39.96006025","Lng":"-75.60586598","county_name":"Chester"},{"city_name":"West Grove","Lat":"39.82070029","Lng":"-75.82870596","county_name":"Chester"}],"info":{"total": "16"}}