{"markers":[{"city_name":"Alexandria","Lat":"40.55830120","Lng":"-78.09978536","county_name":"Huntingdon"},{"city_name":"Birmingham","Lat":"40.64716539","Lng":"-78.19553717","county_name":"Huntingdon"},{"city_name":"Broad Top City","Lat":"40.20091488","Lng":"-78.14097411","county_name":"Huntingdon"},{"city_name":"Cassville","Lat":"40.29465480","Lng":"-78.02813544","county_name":"Huntingdon"},{"city_name":"Coalmont","Lat":"40.21116448","Lng":"-78.20038945","county_name":"Huntingdon"},{"city_name":"Dudley","Lat":"40.20391403","Lng":"-78.17610964","county_name":"Huntingdon"},{"city_name":"Huntingdon","Lat":"40.49919446","Lng":"-78.00960542","county_name":"Huntingdon"},{"city_name":"Mapleton","Lat":"40.39316544","Lng":"-77.93984135","county_name":"Huntingdon"},{"city_name":"Marklesburg","Lat":"40.38316032","Lng":"-78.16991732","county_name":"Huntingdon"},{"city_name":"Mill Creek","Lat":"40.43752558","Lng":"-77.92936721","county_name":"Huntingdon"},{"city_name":"Mount Union","Lat":"40.38428901","Lng":"-77.88241998","county_name":"Huntingdon"},{"city_name":"Orbisonia","Lat":"40.24289001","Lng":"-77.89302248","county_name":"Huntingdon"},{"city_name":"Petersburg","Lat":"40.57285594","Lng":"-78.05193463","county_name":"Huntingdon"},{"city_name":"Borough of Rockhill","Lat":"40.24841390","Lng":"-77.90749790","county_name":"Huntingdon"},{"city_name":"Saltillo","Lat":"40.21111752","Lng":"-78.00708120","county_name":"Huntingdon"},{"city_name":"Shade Gap","Lat":"40.17974957","Lng":"-77.86628062","county_name":"Huntingdon"},{"city_name":"Shirleysburg","Lat":"40.29772416","Lng":"-77.87669772","county_name":"Huntingdon"},{"city_name":"Three Springs","Lat":"40.19723048","Lng":"-77.98177982","county_name":"Huntingdon"}],"info":{"total": "18"}}