{"markers":[{"city_name":"Armagh","Lat":"40.45362508","Lng":"-79.03234635","county_name":"Indiana"},{"city_name":"Blairsville","Lat":"40.43246666","Lng":"-79.25992754","county_name":"Indiana"},{"city_name":"Cherry Tree","Lat":"40.72515925","Lng":"-78.80843387","county_name":"Indiana"},{"city_name":"Clymer","Lat":"40.66852660","Lng":"-79.01328768","county_name":"Indiana"},{"city_name":"Creekside","Lat":"40.68107522","Lng":"-79.19274588","county_name":"Indiana"},{"city_name":"Ernest","Lat":"40.67810419","Lng":"-79.16454288","county_name":"Indiana"},{"city_name":"Glen Campbell","Lat":"40.81972010","Lng":"-78.82956798","county_name":"Indiana"},{"city_name":"Homer City","Lat":"40.54040853","Lng":"-79.15984362","county_name":"Indiana"},{"city_name":"Indiana","Lat":"40.62200560","Lng":"-79.15521157","county_name":"Indiana"},{"city_name":"Marion Center","Lat":"40.77054128","Lng":"-79.04720337","county_name":"Indiana"},{"city_name":"Plumville","Lat":"40.79249989","Lng":"-79.17953056","county_name":"Indiana"},{"city_name":"Saltsburg","Lat":"40.48506177","Lng":"-79.44770141","county_name":"Indiana"},{"city_name":"Shelocta","Lat":"40.65702245","Lng":"-79.30127350","county_name":"Indiana"},{"city_name":"Smicksburg","Lat":"40.87025579","Lng":"-79.17116624","county_name":"Indiana"}],"info":{"total": "14"}}