{"markers":[{"city_name":"Burnham","Lat":"40.63540313","Lng":"-77.56338976","county_name":"Mifflin"},{"city_name":"Juniata Terrace","Lat":"40.58492161","Lng":"-77.57690750","county_name":"Mifflin"},{"city_name":"Kistler","Lat":"40.37720732","Lng":"-77.86600059","county_name":"Mifflin"},{"city_name":"Lewistown","Lat":"40.59659476","Lng":"-77.57311034","county_name":"Mifflin"},{"city_name":"McVeytown","Lat":"40.49783649","Lng":"-77.74148983","county_name":"Mifflin"},{"city_name":"Newton Hamilton","Lat":"40.39264214","Lng":"-77.83566339","county_name":"Mifflin"}],"info":{"total": "6"}}