{"markers":[{"city_name":"Bangor","Lat":"40.86793562","Lng":"-75.20808196","county_name":"Northampton"},{"city_name":"Bath","Lat":"40.72783353","Lng":"-75.39197832","county_name":"Northampton"},{"city_name":"Bethlehem","Lat":"40.62654953","Lng":"-75.36792718","county_name":"Northampton"},{"city_name":"Chapman","Lat":"40.75837444","Lng":"-75.40198705","county_name":"Northampton"},{"city_name":"East Bangor","Lat":"40.88156139","Lng":"-75.18566822","county_name":"Northampton"},{"city_name":"Easton","Lat":"40.68584534","Lng":"-75.22010351","county_name":"Northampton"},{"city_name":"Freemansburg","Lat":"40.62802523","Lng":"-75.34006247","county_name":"Northampton"},{"city_name":"Glendon","Lat":"40.66102577","Lng":"-75.23626668","county_name":"Northampton"},{"city_name":"Hellertown","Lat":"40.58126146","Lng":"-75.33788085","county_name":"Northampton"},{"city_name":"Nazareth","Lat":"40.73998269","Lng":"-75.31307257","county_name":"Northampton"},{"city_name":"Northampton","Lat":"40.68639995","Lng":"-75.48999729","county_name":"Northampton"},{"city_name":"North Catasauqua","Lat":"40.66396856","Lng":"-75.47418562","county_name":"Northampton"},{"city_name":"Pen Argyl","Lat":"40.86766243","Lng":"-75.25365655","county_name":"Northampton"},{"city_name":"Portland","Lat":"40.92148406","Lng":"-75.09849171","county_name":"Northampton"},{"city_name":"Roseto","Lat":"40.87825392","Lng":"-75.22013674","county_name":"Northampton"},{"city_name":"Stockertown","Lat":"40.75471114","Lng":"-75.26289593","county_name":"Northampton"},{"city_name":"Tatamy","Lat":"40.74122186","Lng":"-75.25586227","county_name":"Northampton"},{"city_name":"Walnutport","Lat":"40.75145044","Lng":"-75.59565306","county_name":"Northampton"},{"city_name":"West Easton","Lat":"40.67773668","Lng":"-75.23581783","county_name":"Northampton"},{"city_name":"Wilson","Lat":"40.68487660","Lng":"-75.24068239","county_name":"Northampton"},{"city_name":"Wind Gap","Lat":"40.84842829","Lng":"-75.29181428","county_name":"Northampton"}],"info":{"total": "21"}}