{"markers":[{"city_name":"Forest City","Lat":"41.65189636","Lng":"-75.46906203","county_name":"Susquehanna"},{"city_name":"Friendsville","Lat":"41.91770348","Lng":"-76.04751761","county_name":"Susquehanna"},{"city_name":"Great Bend","Lat":"41.97323087","Lng":"-75.74574603","county_name":"Susquehanna"},{"city_name":"Hallstead","Lat":"41.96196803","Lng":"-75.74738922","county_name":"Susquehanna"},{"city_name":"Hop Bottom","Lat":"41.70534996","Lng":"-75.76753563","county_name":"Susquehanna"},{"city_name":"Lanesboro","Lat":"41.96162962","Lng":"-75.58231318","county_name":"Susquehanna"},{"city_name":"Little Meadows","Lat":"41.98950725","Lng":"-76.12913155","county_name":"Susquehanna"},{"city_name":"Montrose","Lat":"41.83337962","Lng":"-75.87603457","county_name":"Susquehanna"},{"city_name":"New Milford","Lat":"41.87611014","Lng":"-75.72672045","county_name":"Susquehanna"},{"city_name":"Oakland","Lat":"41.95073749","Lng":"-75.60930151","county_name":"Susquehanna"},{"city_name":"Susquehanna","Lat":"41.94341410","Lng":"-75.59962710","county_name":"Susquehanna"},{"city_name":"Thompson","Lat":"41.86345735","Lng":"-75.51400454","county_name":"Susquehanna"},{"city_name":"Union Dale","Lat":"41.71588481","Lng":"-75.48205321","county_name":"Susquehanna"}],"info":{"total": "13"}}