{"markers":[{"city_name":"Addison","Lat":"39.74502602","Lng":"-79.33478879","county_name":"Somerset"},{"city_name":"Benson","Lat":"40.20315589","Lng":"-78.92963475","county_name":"Somerset"},{"city_name":"Berlin","Lat":"39.92163763","Lng":"-78.94985776","county_name":"Somerset"},{"city_name":"Boswell","Lat":"40.16143157","Lng":"-79.02744586","county_name":"Somerset"},{"city_name":"Callimont","Lat":"39.80050226","Lng":"-78.92196892","county_name":"Somerset"},{"city_name":"Casselman","Lat":"39.88568291","Lng":"-79.21112274","county_name":"Somerset"},{"city_name":"Central City","Lat":"40.10925805","Lng":"-78.80495505","county_name":"Somerset"},{"city_name":"Confluence","Lat":"39.81128415","Lng":"-79.35540592","county_name":"Somerset"},{"city_name":"Garrett","Lat":"39.86542714","Lng":"-79.06250876","county_name":"Somerset"},{"city_name":"Hooversville","Lat":"40.15103999","Lng":"-78.91341612","county_name":"Somerset"},{"city_name":"Indian Lake","Lat":"40.04449628","Lng":"-78.86061669","county_name":"Somerset"},{"city_name":"Jennerstown","Lat":"40.16369720","Lng":"-79.06085285","county_name":"Somerset"},{"city_name":"Meyersdale","Lat":"39.81346527","Lng":"-79.02785446","county_name":"Somerset"},{"city_name":"New Baltimore","Lat":"39.98418416","Lng":"-78.77200202","county_name":"Somerset"},{"city_name":"New Centerville","Lat":"39.93991219","Lng":"-79.19322899","county_name":"Somerset"},{"city_name":"Paint","Lat":"40.24249505","Lng":"-78.84896848","county_name":"Somerset"},{"city_name":"Rockwood","Lat":"39.91528072","Lng":"-79.16048335","county_name":"Somerset"},{"city_name":"Salisbury","Lat":"39.75342377","Lng":"-79.08417353","county_name":"Somerset"},{"city_name":"Seven Springs","Lat":"40.02531873","Lng":"-79.29051431","county_name":"Somerset"},{"city_name":"Shanksville","Lat":"40.01715160","Lng":"-78.90679383","county_name":"Somerset"},{"city_name":"Somerset","Lat":"40.00513763","Lng":"-79.07797323","county_name":"Somerset"},{"city_name":"Stoystown","Lat":"40.10324586","Lng":"-78.95399865","county_name":"Somerset"},{"city_name":"Ursina","Lat":"39.81558335","Lng":"-79.33227679","county_name":"Somerset"},{"city_name":"Wellersburg","Lat":"39.73065929","Lng":"-78.84906568","county_name":"Somerset"},{"city_name":"Windber","Lat":"40.23512517","Lng":"-78.82445345","county_name":"Somerset"}],"info":{"total": "25"}}