{"markers":[{"city_name":"Bear Lake","Lat":"41.99342999","Lng":"-79.50140448","county_name":"Warren"},{"city_name":"Clarendon","Lat":"41.78071270","Lng":"-79.09562332","county_name":"Warren"},{"city_name":"Sugar Grove","Lat":"41.98373280","Lng":"-79.33950473","county_name":"Warren"},{"city_name":"Tidioute","Lat":"41.68397011","Lng":"-79.39994285","county_name":"Warren"},{"city_name":"Warren","Lat":"41.84303872","Lng":"-79.14459931","county_name":"Warren"},{"city_name":"Youngsville","Lat":"41.85242271","Lng":"-79.31681522","county_name":"Warren"}],"info":{"total": "6"}}