{"markers":[{"city_name":"Allenport","Lat":"40.09255024","Lng":"-79.85608680","county_name":"Washington"},{"city_name":"Beallsville","Lat":"40.06210911","Lng":"-80.03035018","county_name":"Washington"},{"city_name":"Bentleyville","Lat":"40.11779090","Lng":"-80.00436093","county_name":"Washington"},{"city_name":"Burgettstown","Lat":"40.38124867","Lng":"-80.39248485","county_name":"Washington"},{"city_name":"California","Lat":"40.06936476","Lng":"-79.91525996","county_name":"Washington"},{"city_name":"Canonsburg","Lat":"40.26423876","Lng":"-80.18693342","county_name":"Washington"},{"city_name":"Centerville","Lat":"40.03023121","Lng":"-79.96285682","county_name":"Washington"},{"city_name":"Charleroi","Lat":"40.13829917","Lng":"-79.90028986","county_name":"Washington"},{"city_name":"Claysville","Lat":"40.11994698","Lng":"-80.41326981","county_name":"Washington"},{"city_name":"Coal Center","Lat":"40.06988380","Lng":"-79.90117710","county_name":"Washington"},{"city_name":"Cokeburg","Lat":"40.10007915","Lng":"-80.06579804","county_name":"Washington"},{"city_name":"Deemston","Lat":"40.02724498","Lng":"-80.03327149","county_name":"Washington"},{"city_name":"Donora","Lat":"40.17896431","Lng":"-79.86248561","county_name":"Washington"},{"city_name":"Dunlevy","Lat":"40.11299951","Lng":"-79.85885147","county_name":"Washington"},{"city_name":"East Washington","Lat":"40.17441786","Lng":"-80.23254209","county_name":"Washington"},{"city_name":"Elco","Lat":"40.08075506","Lng":"-79.88108858","county_name":"Washington"},{"city_name":"Ellsworth","Lat":"40.10752215","Lng":"-80.02118782","county_name":"Washington"},{"city_name":"Finleyville","Lat":"40.25265589","Lng":"-80.00303476","county_name":"Washington"},{"city_name":"Green Hills","Lat":"40.11541573","Lng":"-80.30456980","county_name":"Washington"},{"city_name":"Houston","Lat":"40.25028855","Lng":"-80.21141443","county_name":"Washington"},{"city_name":"Long Branch","Lat":"40.09801234","Lng":"-79.88023183","county_name":"Washington"},{"city_name":"McDonald","Lat":"40.37017416","Lng":"-80.23237608","county_name":"Washington"},{"city_name":"Marianna","Lat":"40.01285745","Lng":"-80.11210659","county_name":"Washington"},{"city_name":"Midway","Lat":"40.36864464","Lng":"-80.29129806","county_name":"Washington"},{"city_name":"Monongahela","Lat":"40.19567945","Lng":"-79.92216734","county_name":"Washington"},{"city_name":"New Eagle","Lat":"40.20629789","Lng":"-79.95310952","county_name":"Washington"},{"city_name":"North Charleroi","Lat":"40.15023393","Lng":"-79.90839755","county_name":"Washington"},{"city_name":"Roscoe","Lat":"40.07813071","Lng":"-79.86437964","county_name":"Washington"},{"city_name":"Speers","Lat":"40.12199487","Lng":"-79.87995615","county_name":"Washington"},{"city_name":"Stockdale","Lat":"40.08333989","Lng":"-79.85059132","county_name":"Washington"},{"city_name":"Twilight","Lat":"40.11569631","Lng":"-79.89391296","county_name":"Washington"},{"city_name":"Washington","Lat":"40.17411057","Lng":"-80.24708596","county_name":"Washington"},{"city_name":"West Alexander","Lat":"40.10435135","Lng":"-80.50825726","county_name":"Washington"},{"city_name":"West Brownsville","Lat":"40.03132202","Lng":"-79.89119177","county_name":"Washington"},{"city_name":"West Middletown","Lat":"40.24291550","Lng":"-80.42542451","county_name":"Washington"}],"info":{"total": "35"}}